time,x,y,z,roll,pitch,thrust,voltage,yaw,state
1775850466.358,1.320,-1.656,56.280,-0.136,-0.584,0.550,12.484,0.000,TAKEOFF
1775850466.684,1.070,-1.806,57.696,0.043,-0.598,0.550,12.482,0.000,TAKEOFF
1775850467.014,0.788,-1.873,59.116,0.218,-0.559,0.550,12.480,0.000,TAKEOFF
1775850467.339,0.498,-1.852,60.539,0.373,-0.470,0.550,12.478,0.000,TAKEOFF
1775850467.665,0.225,-1.744,61.964,0.496,-0.338,0.550,12.476,0.000,TAKEOFF
1775850467.991,-0.006,-1.561,63.392,0.573,-0.177,0.550,12.473,0.000,TAKEOFF
1775850468.317,-0.174,-1.322,64.823,0.600,0.001,0.550,12.471,0.000,TAKEOFF
1775850468.644,-0.262,-1.045,66.255,0.573,0.178,0.550,12.469,0.000,TAKEOFF
1775850468.970,-0.261,-0.755,67.690,0.495,0.339,0.550,12.467,0.000,TAKEOFF
1775850469.297,-0.173,-0.476,69.127,0.373,0.470,0.550,12.465,0.000,TAKEOFF
1775850469.624,-0.007,-0.233,70.566,0.217,0.559,0.550,12.463,0.000,TAKEOFF
1775850469.953,0.222,-0.048,72.007,0.042,0.599,0.550,12.461,0.000,TAKEOFF
1775850470.280,0.492,0.060,73.450,-0.137,0.584,0.550,12.458,0.000,TAKEOFF
1775850470.608,0.781,0.080,74.894,-0.303,0.518,0.550,12.456,0.000,TAKEOFF
1775850470.932,1.065,0.012,76.340,-0.443,0.405,0.550,12.454,0.000,TAKEOFF
1775850471.257,1.318,-0.137,77.787,-0.543,0.256,0.550,12.452,0.000,TAKEOFF
1775850471.584,1.519,-0.352,79.235,-0.594,0.084,0.550,12.450,0.000,TAKEOFF
1775850471.911,1.646,-0.614,80.685,-0.592,-0.095,0.550,12.448,0.000,TAKEOFF
1775850472.240,1.687,-0.901,82.136,-0.538,-0.266,0.550,12.446,0.000,TAKEOFF
1775850472.566,1.640,-1.188,83.588,-0.435,-0.413,0.550,12.443,0.000,TAKEOFF
1775850472.893,1.509,-1.452,85.041,-0.294,-0.523,0.550,12.441,0.000,TAKEOFF
1775850473.215,1.307,-1.666,86.495,-0.126,-0.587,0.550,12.439,0.000,TAKEOFF
1775850473.539,1.054,-1.812,87.950,0.053,-0.598,0.550,12.437,0.000,TAKEOFF
1775850473.867,0.771,-1.875,89.406,0.227,-0.555,0.550,12.435,0.000,TAKEOFF
1775850474.194,0.482,-1.848,90.862,0.381,-0.463,0.550,12.433,0.000,TAKEOFF
1775850474.520,0.211,-1.736,92.320,0.501,-0.330,0.550,12.431,0.000,TAKEOFF
1775850474.847,-0.017,-1.549,93.778,0.576,-0.167,0.550,12.428,0.000,TAKEOFF
1775850475.176,-0.181,-1.307,95.237,0.600,0.011,0.550,12.426,0.000,TAKEOFF
1775850475.504,-0.264,-1.029,96.697,0.570,0.187,0.550,12.424,0.000,TAKEOFF
1775850475.829,-0.258,-0.739,98.157,0.489,0.347,0.550,12.422,0.000,TAKEOFF
1775850476.156,-0.165,-0.461,99.618,0.365,0.477,0.550,12.420,0.000,TAKEOFF
1775850476.485,0.005,-0.220,101.079,0.207,0.563,0.550,12.418,0.000,TAKEOFF
1775850476.809,0.236,-0.040,102.541,0.032,0.599,0.550,12.416,0.000,TAKEOFF
1775850477.137,0.508,0.063,104.003,-0.147,0.582,0.550,12.413,0.000,TAKEOFF
1775850477.461,0.797,0.079,105.466,-0.312,0.512,0.550,12.411,0.000,TAKEOFF
1775850477.786,1.080,0.006,106.929,-0.450,0.397,0.550,12.409,0.000,TAKEOFF
1775850478.116,1.331,-0.148,108.393,-0.547,0.247,0.550,12.407,0.000,TAKEOFF
1775850478.445,1.528,-0.366,109.857,-0.595,0.074,0.550,12.405,0.000,TAKEOFF
1775850478.771,1.650,-0.630,111.321,-0.591,-0.105,0.550,12.403,0.000,TAKEOFF
1775850479.099,1.687,-0.917,112.786,-0.533,-0.275,0.550,12.401,0.000,TAKEOFF
1775850479.426,1.634,-1.204,114.251,-0.428,-0.420,0.550,12.398,0.000,TAKEOFF
1775850479.754,1.499,-1.465,115.716,-0.285,-0.528,0.550,12.396,0.000,TAKEOFF
1775850480.081,1.294,-1.677,117.181,-0.116,-0.589,0.550,12.394,0.000,TAKEOFF
1775850480.410,1.039,-1.818,118.647,0.063,-0.597,0.550,12.392,0.000,TAKEOFF
1775850480.737,0.755,-1.875,120.113,0.237,-0.551,0.550,12.390,0.000,TAKEOFF
1775850481.063,0.466,-1.844,121.580,0.389,-0.457,0.550,12.388,0.000,TAKEOFF
1775850481.390,0.197,-1.727,123.046,0.507,-0.321,0.550,12.386,0.000,TAKEOFF
1775850481.716,-0.028,-1.537,124.513,0.579,-0.157,0.550,12.383,0.000,TAKEOFF
1775850482.039,-0.188,-1.292,125.980,0.600,0.021,0.550,12.381,0.000,TAKEOFF
1775850482.362,-0.266,-1.013,127.447,0.567,0.197,0.550,12.379,0.000,TAKEOFF
1775850482.690,-0.255,-0.723,128.914,0.483,0.356,0.550,12.377,0.000,TAKEOFF
1775850483.015,-0.158,-0.446,130.381,0.357,0.483,0.550,12.375,0.000,TAKEOFF
1775850483.341,0.016,-0.209,131.849,0.198,0.566,0.550,12.373,0.000,TAKEOFF
1775850483.667,0.250,-0.032,133.317,0.022,0.600,0.550,12.370,0.000,TAKEOFF
1775850483.993,0.524,0.066,134.784,-0.156,0.579,0.550,12.368,0.000,TAKEOFF
1775850484.320,0.813,0.077,136.252,-0.321,0.507,0.550,12.366,0.000,TAKEOFF
1775850484.647,1.095,-0.001,137.721,-0.456,0.390,0.550,12.364,0.000,TAKEOFF
1775850484.972,1.344,-0.158,139.189,-0.551,0.238,0.550,12.362,0.000,TAKEOFF
1775850485.296,1.537,-0.380,140.657,-0.597,0.064,0.550,12.360,0.000,TAKEOFF
1775850485.623,1.655,-0.646,142.125,-0.589,-0.115,0.550,12.358,0.000,TAKEOFF
1775850485.950,1.686,-0.934,143.594,-0.529,-0.284,0.550,12.355,0.000,TAKEOFF
1775850486.276,1.629,-1.220,145.063,-0.421,-0.427,0.550,12.353,0.000,TAKEOFF
1775850486.603,1.489,-1.479,146.531,-0.276,-0.533,0.550,12.351,0.000,TAKEOFF
1775850486.929,1.281,-1.687,148.000,-0.106,-0.591,0.550,12.349,0.000,TAKEOFF
1775850487.255,1.024,-1.824,149.469,0.073,-0.596,0.550,12.347,0.000,TAKEOFF
1775850487.583,0.739,-1.876,150.938,0.246,-0.547,0.550,12.345,0.000,TAKEOFF
1775850487.909,0.450,-1.839,152.407,0.397,-0.450,0.550,12.343,0.000,TAKEOFF
1775850488.234,0.183,-1.718,153.876,0.512,-0.313,0.550,12.340,0.000,TAKEOFF
1775850488.560,-0.039,-1.525,155.345,0.582,-0.148,0.550,12.338,0.000,TAKEOFF
1775850488.887,-0.195,-1.277,156.814,0.599,0.031,0.550,12.336,0.000,TAKEOFF
1775850489.214,-0.268,-0.996,158.283,0.563,0.206,0.550,12.334,0.000,TAKEOFF
1775850489.538,-0.252,-0.706,159.752,0.477,0.364,0.550,12.332,0.000,TAKEOFF
1775850489.863,-0.150,-0.432,161.222,0.348,0.489,0.550,12.330,0.000,TAKEOFF
1775850490.189,0.028,-0.197,162.691,0.188,0.570,0.550,12.328,0.000,TAKEOFF
1775850490.515,0.265,-0.024,164.160,0.012,0.600,0.550,12.325,0.000,TAKEOFF
1775850490.841,0.540,0.069,165.630,-0.166,0.577,0.550,12.323,0.000,TAKEOFF
1775850491.170,0.829,0.075,167.099,-0.329,0.502,0.550,12.321,0.000,TAKEOFF
1775850491.498,1.110,-0.008,168.569,-0.463,0.382,0.550,12.319,0.000,TAKEOFF
1775850491.826,1.357,-0.169,170.038,-0.555,0.228,0.550,12.317,0.000,TAKEOFF
1775850492.152,1.546,-0.394,171.508,-0.598,0.054,0.550,12.315,0.000,TAKEOFF
1775850492.479,1.659,-0.661,172.977,-0.587,-0.125,0.550,12.313,0.000,TAKEOFF
1775850492.804,1.685,-0.950,174.447,-0.524,-0.293,0.550,12.310,0.000,TAKEOFF
1775850493.131,1.623,-1.235,175.916,-0.414,-0.434,0.550,12.308,0.000,TAKEOFF
1775850493.456,1.479,-1.492,177.386,-0.267,-0.537,0.550,12.306,0.000,TAKEOFF
1775850493.782,1.268,-1.696,178.856,-0.096,-0.592,0.550,12.304,0.000,TAKEOFF
1775850494.111,1.008,-1.829,180.325,0.083,-0.594,0.550,12.302,0.000,TAKEOFF
1775850494.452,0.723,-1.876,181.795,0.255,-0.543,0.550,12.300,0.000,TAKEOFF
1775850494.778,0.434,-1.835,183.265,0.404,-0.444,0.550,12.298,0.000,TAKEOFF
1775850495.104,0.169,-1.709,184.734,0.517,-0.304,0.550,12.295,0.000,TAKEOFF
1775850495.432,-0.050,-1.512,186.204,0.584,-0.138,0.550,12.293,0.000,TAKEOFF
1775850495.758,-0.201,-1.262,187.674,0.599,0.041,0.550,12.291,0.000,TAKEOFF
1775850496.086,-0.269,-0.980,189.144,0.560,0.216,0.550,12.289,0.000,TAKEOFF
1775850496.415,-0.248,-0.690,190.613,0.471,0.372,0.550,12.287,0.000,TAKEOFF
1775850496.740,-0.142,-0.417,192.083,0.340,0.494,0.550,12.285,0.000,TAKEOFF
1775850497.067,0.040,-0.185,193.553,0.179,0.573,0.550,12.283,0.000,TAKEOFF
1775850497.393,0.279,-0.017,195.023,0.002,0.600,0.550,12.280,0.000,TAKEOFF
1775850497.721,0.556,0.072,196.493,-0.176,0.574,0.550,12.278,0.000,TAKEOFF
1775850498.047,0.846,0.072,197.963,-0.337,0.496,0.550,12.276,0.000,TAKEOFF
1775850498.374,1.125,-0.015,199.432,-0.469,0.374,0.550,12.274,0.000,TAKEOFF
1775850498.701,1.369,-0.180,200.902,-0.559,0.219,0.550,12.272,0.000,TAKEOFF
1775850499.030,1.554,-0.408,202.372,-0.598,0.044,0.550,12.270,0.000,TAKEOFF
1775850499.359,1.663,-0.677,203.842,-0.585,-0.135,0.550,12.268,0.000,TAKEOFF
1775850499.685,1.684,-0.966,205.312,-0.519,-0.302,0.550,12.265,0.000,TAKEOFF
1775850500.013,1.617,-1.250,206.782,-0.406,-0.441,0.550,12.263,0.000,TAKEOFF
1775850500.340,1.469,-1.505,208.252,-0.258,-0.542,0.550,12.261,0.000,TAKEOFF
1775850500.667,1.254,-1.706,209.722,-0.086,-0.594,0.550,12.259,0.000,TAKEOFF
1775850500.992,0.993,-1.834,211.191,0.093,-0.593,0.550,12.257,0.000,TAKEOFF
1775850501.317,0.706,-1.876,212.661,0.264,-0.539,0.550,12.255,0.000,TAKEOFF
1775850501.645,0.419,-1.830,214.131,0.412,-0.437,0.550,12.253,0.000,TAKEOFF
1775850501.971,0.155,-1.700,215.601,0.522,-0.296,0.550,12.250,0.000,TAKEOFF
1775850502.296,-0.060,-1.499,217.071,0.586,-0.128,0.550,12.248,0.000,TAKEOFF
1775850502.625,-0.207,-1.247,218.541,0.598,0.051,0.550,12.246,0.000,TAKEOFF
1775850502.954,-0.270,-0.964,220.011,0.556,0.225,0.550,12.244,0.000,TAKEOFF
1775850503.282,-0.245,-0.674,221.481,0.465,0.380,0.550,12.242,0.000,TAKEOFF
1775850503.609,-0.133,-0.403,222.951,0.332,0.500,0.550,12.240,0.000,TAKEOFF
1775850503.936,0.052,-0.174,224.421,0.169,0.576,0.550,12.237,0.000,TAKEOFF
1775850504.263,0.294,-0.009,225.891,-0.008,0.600,0.550,12.235,0.000,TAKEOFF
1775850504.589,0.572,0.074,227.361,-0.185,0.571,0.550,12.233,0.000,TAKEOFF
1775850504.918,0.862,0.070,228.831,-0.346,0.490,0.550,12.231,0.000,TAKEOFF
1775850505.244,1.140,-0.022,230.301,-0.475,0.366,0.550,12.229,0.000,TAKEOFF
1775850505.571,1.381,-0.191,231.771,-0.562,0.209,0.550,12.227,0.000,TAKEOFF
1775850505.896,1.562,-0.422,233.241,-0.599,0.034,0.550,12.225,0.000,TAKEOFF
1775850506.224,1.666,-0.693,234.711,-0.582,-0.145,0.550,12.222,0.000,TAKEOFF
1775850506.551,1.683,-0.983,236.181,-0.514,-0.310,0.550,12.220,0.000,TAKEOFF
1775850506.880,1.611,-1.266,237.650,-0.399,-0.448,0.550,12.218,0.000,TAKEOFF
1775850507.207,1.459,-1.518,239.120,-0.249,-0.546,0.550,12.216,0.000,TAKEOFF
1775850507.533,1.241,-1.715,240.590,-0.076,-0.595,0.550,12.214,0.000,TAKEOFF
1775850507.860,0.977,-1.839,242.060,0.103,-0.591,0.550,12.212,0.000,TAKEOFF
1775850508.188,0.690,-1.876,243.530,0.273,-0.534,0.550,12.210,0.000,TAKEOFF
1775850508.517,0.403,-1.825,245.000,0.419,-0.430,0.550,12.207,0.000,TAKEOFF
1775850508.859,0.142,-1.690,246.470,0.527,-0.287,0.550,12.205,0.000,TAKEOFF
1775850509.187,-0.071,-1.486,247.940,0.588,-0.118,0.550,12.203,0.000,TAKEOFF
1775850509.513,-0.213,-1.231,249.410,0.597,0.061,0.550,12.201,0.000,TAKEOFF
1775850509.838,-0.271,-0.948,250.880,0.552,0.235,0.550,12.199,0.000,TAKEOFF
1775850510.166,-0.241,-0.658,252.350,0.458,0.387,0.550,12.197,0.000,TAKEOFF
1775850510.492,-0.125,-0.389,253.820,0.323,0.505,0.550,12.195,0.000,TAKEOFF
1775850510.820,0.064,-0.163,255.290,0.159,0.578,0.550,12.192,0.000,TAKEOFF
1775850511.146,0.309,-0.003,256.760,-0.019,0.600,0.550,12.190,0.000,TAKEOFF
1775850511.473,0.588,0.077,258.230,-0.195,0.567,0.550,12.188,0.000,TAKEOFF
1775850511.800,0.878,0.067,259.700,-0.354,0.484,0.550,12.186,0.000,TAKEOFF
1775850512.128,1.155,-0.030,261.170,-0.481,0.358,0.550,12.184,0.000,TAKEOFF
1775850512.454,1.393,-0.203,262.640,-0.566,0.200,0.550,12.182,0.000,TAKEOFF
1775850512.779,1.570,-0.436,264.110,-0.600,0.024,0.550,12.180,0.000,TAKEOFF
1775850513.106,1.670,-0.709,265.580,-0.580,-0.154,0.550,12.177,0.000,TAKEOFF
1775850513.434,1.681,-0.999,267.050,-0.508,-0.319,0.550,12.175,0.000,TAKEOFF
1775850513.759,1.604,-1.281,268.520,-0.391,-0.455,0.550,12.173,0.000,TAKEOFF
1775850514.088,1.448,-1.530,269.990,-0.240,-0.550,0.550,12.171,0.000,TAKEOFF
1775850514.415,1.227,-1.724,271.460,-0.066,-0.596,0.550,12.169,0.000,TAKEOFF
1775850514.740,0.962,-1.843,272.930,0.113,-0.589,0.550,12.167,0.000,TAKEOFF
1775850515.068,0.674,-1.876,274.400,0.282,-0.530,0.550,12.165,0.000,TAKEOFF
1775850515.395,0.388,-1.819,275.870,0.426,-0.423,0.550,12.162,0.000,TAKEOFF
1775850515.724,0.128,-1.680,277.340,0.532,-0.278,0.550,12.160,0.000,TAKEOFF
1775850516.049,-0.081,-1.473,278.810,0.590,-0.108,0.550,12.158,0.000,TAKEOFF
1775850516.377,-0.219,-1.216,280.280,0.596,0.071,0.550,12.156,0.000,TAKEOFF
1775850516.703,-0.272,-0.931,281.750,0.548,0.244,0.550,12.154,0.000,TAKEOFF
1775850517.031,-0.236,-0.643,283.220,0.452,0.395,0.550,12.152,0.000,TAKEOFF
1775850517.358,-0.116,-0.375,284.690,0.315,0.511,0.550,12.150,0.000,TAKEOFF
1775850517.683,0.077,-0.152,286.160,0.150,0.581,0.550,12.147,0.000,TAKEOFF
1775850518.011,0.324,0.004,287.630,-0.029,0.599,0.550,12.145,0.000,TAKEOFF
1775850518.338,0.604,0.078,289.100,-0.204,0.564,0.550,12.143,0.000,TAKEOFF
1775850518.665,0.894,0.064,290.570,-0.362,0.478,0.550,12.141,0.000,TAKEOFF
1775850518.994,1.169,-0.038,292.040,-0.487,0.350,0.550,12.139,0.000,TAKEOFF
1775850519.322,1.405,-0.215,293.510,-0.569,0.190,0.550,12.137,0.000,TAKEOFF
1775850519.649,1.578,-0.451,294.980,-0.600,0.014,0.550,12.135,0.000,TAKEOFF
1775850519.977,1.673,-0.725,296.450,-0.577,-0.164,0.550,12.132,0.000,TAKEOFF
1775850520.304,1.679,-1.015,297.920,-0.503,-0.327,0.550,12.130,0.000,TAKEOFF
1775850520.631,1.598,-1.296,299.390,-0.384,-0.461,0.550,12.128,0.000,TAKEOFF
1775850520.959,1.437,-1.543,300.860,-0.230,-0.554,0.550,12.126,0.000,TAKEOFF
1775850521.287,1.213,-1.733,302.330,-0.056,-0.597,0.550,12.124,0.000,TAKEOFF
1775850521.613,0.946,-1.847,303.800,0.123,-0.587,0.550,12.122,0.000,TAKEOFF
1775850521.940,0.657,-1.875,305.270,0.291,-0.525,0.550,12.120,0.000,TAKEOFF
1775850522.269,0.372,-1.813,306.740,0.433,-0.415,0.550,12.117,0.000,TAKEOFF
1775850522.592,0.115,-1.670,308.210,0.536,-0.269,0.550,12.115,0.000,TAKEOFF
1775850522.919,-0.090,-1.460,309.680,0.592,-0.098,0.550,12.113,0.000,TAKEOFF
1775850523.246,-0.224,-1.201,311.150,0.595,0.081,0.550,12.111,0.000,TAKEOFF
1775850523.575,-0.272,-0.915,312.620,0.544,0.253,0.550,12.109,0.000,TAKEOFF
1775850523.902,-0.232,-0.627,314.090,0.445,0.403,0.550,12.107,0.000,TAKEOFF
1775850524.227,-0.107,-0.361,315.560,0.306,0.516,0.550,12.105,0.000,TAKEOFF
1775850524.557,0.089,-0.141,317.030,0.140,0.583,0.550,12.102,0.000,TAKEOFF
1775850524.883,0.339,0.011,318.500,-0.039,0.599,0.550,12.100,0.000,TAKEOFF
1775850525.211,0.620,0.080,319.970,-0.214,0.561,0.550,12.098,0.000,TAKEOFF
1775850525.538,0.910,0.060,321.440,-0.370,0.472,0.550,12.096,0.000,TAKEOFF
1775850525.864,1.184,-0.046,322.910,-0.493,0.342,0.550,12.094,0.000,TAKEOFF
1775850526.191,1.416,-0.226,324.380,-0.572,0.181,0.550,12.092,0.000,TAKEOFF
1775850526.519,1.586,-0.465,325.850,-0.600,0.004,0.550,12.089,0.000,TAKEOFF
1775850526.845,1.675,-0.741,327.320,-0.574,-0.174,0.550,12.087,0.000,TAKEOFF
1775850527.172,1.677,-1.031,328.790,-0.497,-0.336,0.550,12.085,0.000,TAKEOFF
1775850527.496,1.591,-1.311,330.260,-0.376,-0.468,0.550,12.083,0.000,TAKEOFF
1775850527.824,1.426,-1.555,331.730,-0.221,-0.558,0.550,12.081,0.000,TAKEOFF
1775850528.149,1.199,-1.741,333.200,-0.046,-0.598,0.550,12.079,0.000,TAKEOFF
1775850528.475,0.930,-1.851,334.670,0.133,-0.585,0.550,12.077,0.000,TAKEOFF
1775850528.804,0.641,-1.874,336.140,0.300,-0.520,0.550,12.074,0.000,TAKEOFF
1775850529.132,0.357,-1.808,337.610,0.440,-0.408,0.550,12.072,0.000,TAKEOFF
1775850529.460,0.102,-1.660,339.080,0.541,-0.260,0.550,12.070,0.000,TAKEOFF
1775850529.785,-0.100,-1.446,340.550,0.593,-0.088,0.550,12.068,0.000,TAKEOFF
1775850530.113,-0.229,-1.185,342.020,0.593,0.091,0.550,12.066,0.000,TAKEOFF
1775850530.439,-0.272,-0.899,343.490,0.540,0.262,0.550,12.064,0.000,TAKEOFF
1775850530.768,-0.227,-0.611,344.960,0.438,0.410,0.550,12.062,0.000,TAKEOFF
1775850531.095,-0.098,-0.347,346.430,0.297,0.521,0.550,12.059,0.000,TAKEOFF
1775850531.420,0.102,-0.131,347.900,0.130,0.586,0.550,12.057,0.000,TAKEOFF
1775850531.748,0.354,0.017,349.370,-0.049,0.598,0.550,12.055,0.000,TAKEOFF
1775850532.078,0.637,0.081,350.840,-0.223,0.557,0.550,12.053,0.000,TAKEOFF
1775850532.405,0.926,0.056,352.310,-0.378,0.466,0.550,12.051,0.000,TAKEOFF
1775850532.730,1.198,-0.054,353.780,-0.499,0.334,0.550,12.049,0.000,TAKEOFF
1775850533.056,1.428,-0.238,355.250,-0.575,0.171,0.550,12.047,0.000,TAKEOFF
1775850533.383,1.593,-0.480,356.720,-0.600,-0.006,0.550,12.044,0.000,TAKEOFF
1775850533.711,1.678,-0.757,358.190,-0.571,-0.183,0.550,12.042,0.000,TAKEOFF
1775850534.038,1.674,-1.048,359.660,-0.492,-0.344,0.550,12.040,0.000,TAKEOFF
1775850534.367,1.583,-1.326,361.130,-0.368,-0.474,0.550,12.038,0.000,TAKEOFF
1775850534.693,1.415,-1.567,362.600,-0.211,-0.562,0.550,12.036,0.000,TAKEOFF
1775850535.021,1.185,-1.750,364.070,-0.036,-0.599,0.550,12.034,0.000,TAKEOFF
1775850535.346,0.914,-1.855,365.540,0.143,-0.583,0.550,12.032,0.000,TAKEOFF
1775850535.672,0.625,-1.872,367.010,0.308,-0.515,0.550,12.029,0.000,TAKEOFF
1775850536.002,0.341,-1.801,368.480,0.447,-0.401,0.550,12.027,0.000,TAKEOFF
1775850536.329,0.089,-1.650,369.950,0.545,-0.251,0.550,12.025,0.000,TAKEOFF
1775850536.654,-0.109,-1.433,371.420,0.595,-0.078,0.550,12.023,0.000,TAKEOFF
1775850536.982,-0.234,-1.170,372.890,0.591,0.101,0.550,12.021,0.000,TAKEOFF
1775850537.308,-0.272,-0.882,374.360,0.535,0.271,0.550,12.019,0.000,TAKEOFF
1775850537.635,-0.222,-0.595,375.830,0.431,0.417,0.550,12.017,0.000,TAKEOFF
1775850537.959,-0.088,-0.333,377.300,0.289,0.526,0.550,12.014,0.000,TAKEOFF
1775850538.286,0.115,-0.121,378.770,0.120,0.588,0.550,12.012,0.000,TAKEOFF
1775850538.613,0.369,0.023,380.240,-0.059,0.597,0.550,12.010,0.000,TAKEOFF
1775850538.941,0.653,0.082,381.710,-0.233,0.553,0.550,12.008,0.000,TAKEOFF
1775850539.269,0.942,0.052,383.180,-0.386,0.460,0.550,12.006,0.000,TAKEOFF
1775850539.595,1.212,-0.062,384.650,-0.504,0.325,0.550,12.004,0.000,TAKEOFF
1775850539.923,1.439,-0.251,386.120,-0.578,0.162,0.550,12.002,0.000,TAKEOFF
1775850540.251,1.600,-0.495,387.590,-0.600,-0.016,0.550,11.999,0.000,TAKEOFF
1775850540.579,1.680,-0.774,389.060,-0.568,-0.193,0.550,11.997,0.000,TAKEOFF
1775850540.907,1.671,-1.064,390.530,-0.486,-0.352,0.550,11.995,0.000,TAKEOFF
1775850541.235,1.576,-1.341,392.000,-0.360,-0.480,0.550,11.993,0.000,TAKEOFF
1775850541.561,1.403,-1.579,393.470,-0.202,-0.565,0.550,11.991,0.000,TAKEOFF
1775850541.889,1.171,-1.758,394.940,-0.026,-0.599,0.550,11.989,0.000,TAKEOFF
1775850542.217,0.898,-1.858,396.410,0.152,-0.580,0.550,11.987,0.000,TAKEOFF
1775850542.545,0.608,-1.871,397.880,0.317,-0.509,0.550,11.984,0.000,TAKEOFF
1775850542.874,0.326,-1.795,399.350,0.453,-0.393,0.550,11.982,0.000,TAKEOFF
1775850543.198,0.076,-1.639,400.820,0.549,-0.241,0.550,11.980,0.000,TAKEOFF
1775850543.524,-0.118,-1.419,402.290,0.596,-0.068,0.550,11.978,0.000,TAKEOFF
1775850543.850,-0.238,-1.154,403.760,0.590,0.111,0.550,11.976,0.000,TAKEOFF
1775850544.175,-0.272,-0.866,405.230,0.531,0.280,0.550,11.974,0.000,TAKEOFF
1775850544.502,-0.216,-0.580,406.700,0.424,0.424,0.550,11.972,0.000,TAKEOFF
1775850544.831,-0.079,-0.320,408.170,0.280,0.531,0.550,11.969,0.000,TAKEOFF
1775850545.156,0.128,-0.111,409.640,0.110,0.590,0.550,11.967,0.000,TAKEOFF
1775850545.482,0.385,0.028,411.110,-0.069,0.596,0.550,11.965,0.000,TAKEOFF
1775850545.810,0.669,0.083,412.580,-0.242,0.549,0.550,11.963,0.000,TAKEOFF
1775850546.137,0.958,0.048,414.050,-0.393,0.453,0.550,11.961,0.000,TAKEOFF
1775850546.462,1.226,-0.071,415.520,-0.510,0.317,0.550,11.959,0.000,TAKEOFF
1775850546.788,1.450,-0.263,416.990,-0.580,0.152,0.550,11.957,0.000,TAKEOFF
1775850547.115,1.607,-0.510,418.460,-0.599,-0.027,0.550,11.954,0.000,TAKEOFF
1775850547.440,1.682,-0.790,419.930,-0.565,-0.202,0.550,11.952,0.000,TAKEOFF
1775850547.767,1.668,-1.080,421.400,-0.480,-0.360,0.550,11.950,0.000,TAKEOFF
1775850548.094,1.568,-1.355,422.870,-0.352,-0.486,0.550,11.948,0.000,TAKEOFF
1775850548.421,1.392,-1.591,424.340,-0.192,-0.568,0.550,11.946,0.000,TAKEOFF
1775850548.747,1.156,-1.766,425.810,-0.016,-0.600,0.550,11.944,0.000,TAKEOFF
1775850549.075,0.882,-1.861,427.280,0.162,-0.578,0.550,11.941,0.000,TAKEOFF
1775850549.403,0.592,-1.869,428.750,0.326,-0.504,0.550,11.939,0.000,TAKEOFF
1775850549.734,0.311,-1.788,430.220,0.460,-0.385,0.550,11.937,0.000,TAKEOFF
1775850550.059,0.064,-1.628,431.690,0.553,-0.232,0.550,11.935,0.000,TAKEOFF
1775850550.385,-0.127,-1.405,433.160,0.597,-0.058,0.550,11.933,0.000,TAKEOFF
1775850550.715,-0.242,-1.138,434.630,0.588,0.121,0.550,11.931,0.000,TAKEOFF
1775850551.041,-0.271,-0.850,436.100,0.526,0.289,0.550,11.929,0.000,TAKEOFF
1775850551.368,-0.211,-0.564,437.570,0.417,0.432,0.550,11.926,0.000,TAKEOFF
1775850551.695,-0.069,-0.307,439.040,0.271,0.535,0.550,11.924,0.000,TAKEOFF
1775850552.024,0.141,-0.101,440.510,0.100,0.592,0.550,11.922,0.000,TAKEOFF
1775850552.350,0.400,0.034,441.980,-0.079,0.595,0.550,11.920,0.000,TAKEOFF
1775850552.677,0.685,0.083,443.450,-0.251,0.545,0.550,11.918,0.000,TAKEOFF
1775850553.005,0.974,0.044,444.920,-0.401,0.446,0.550,11.916,0.000,TAKEOFF
1775850553.333,1.240,-0.080,446.390,-0.515,0.308,0.550,11.914,0.000,TAKEOFF
1775850553.657,1.460,-0.276,447.860,-0.583,0.142,0.550,11.911,0.000,TAKEOFF
1775850553.984,1.613,-0.525,449.330,-0.599,-0.037,0.550,11.909,0.000,TAKEOFF
1775850554.313,1.684,-0.806,450.800,-0.561,-0.212,0.550,11.907,0.000,TAKEOFF
1775850554.641,1.665,-1.096,452.270,-0.474,-0.368,0.550,11.905,0.000,TAKEOFF
1775850554.968,1.560,-1.370,453.740,-0.344,-0.492,0.550,11.903,0.000,TAKEOFF
1775850555.295,1.380,-1.603,455.210,-0.183,-0.571,0.550,11.901,0.000,TAKEOFF
1775850555.620,1.142,-1.773,456.680,-0.006,-0.600,0.550,11.899,0.000,TAKEOFF
1775850555.947,0.866,-1.864,458.150,0.172,-0.575,0.550,11.896,0.000,TAKEOFF
1775850556.271,0.576,-1.866,459.620,0.334,-0.498,0.550,11.894,0.000,TAKEOFF
1775850556.597,0.296,-1.781,461.090,0.466,-0.378,0.550,11.892,0.000,TAKEOFF
1775850556.925,0.051,-1.617,462.560,0.557,-0.223,0.550,11.890,0.000,TAKEOFF
1775850557.254,-0.136,-1.391,464.030,0.598,-0.048,0.550,11.888,0.000,TAKEOFF
1775850557.580,-0.246,-1.122,465.500,0.586,0.131,0.550,11.886,0.000,TAKEOFF
1775850557.908,-0.270,-0.833,466.970,0.521,0.298,0.550,11.884,0.000,TAKEOFF
1775850558.235,-0.205,-0.549,468.440,0.410,0.438,0.550,11.881,0.000,TAKEOFF
1775850558.562,-0.059,-0.294,469.910,0.262,0.540,0.550,11.879,0.000,TAKEOFF
1775850558.888,0.155,-0.091,471.380,0.090,0.593,0.550,11.877,0.000,TAKEOFF
1775850559.215,0.415,0.039,472.850,-0.089,0.593,0.550,11.875,0.000,TAKEOFF
1775850559.542,0.702,0.083,474.320,-0.260,0.541,0.550,11.873,0.000,TAKEOFF
1775850559.870,0.990,0.039,475.790,-0.408,0.440,0.550,11.871,0.000,TAKEOFF
1775850560.195,1.254,-0.089,477.260,-0.520,0.299,0.550,11.869,0.000,TAKEOFF
1775850560.523,1.471,-0.288,478.730,-0.585,0.132,0.550,11.866,0.000,TAKEOFF
1775850560.848,1.619,-0.540,480.200,-0.598,-0.047,0.550,11.864,0.000,TAKEOFF
1775850561.175,1.685,-0.822,481.670,-0.558,-0.221,0.550,11.862,0.000,TAKEOFF
1775850561.501,1.661,-1.112,483.140,-0.467,-0.376,0.550,11.860,0.000,TAKEOFF
1775850561.829,1.552,-1.384,484.610,-0.335,-0.498,0.550,11.858,0.000,TAKEOFF
1775850562.155,1.368,-1.614,486.080,-0.173,-0.574,0.550,11.856,0.000,TAKEOFF
1775850562.485,1.127,-1.781,487.550,0.004,-0.600,0.550,11.854,0.000,TAKEOFF
1775850562.812,0.850,-1.866,489.020,0.181,-0.572,0.550,11.851,0.000,TAKEOFF
1775850563.137,0.560,-1.864,490.490,0.342,-0.493,0.550,11.849,0.000,TAKEOFF
1775850563.461,0.281,-1.774,491.960,0.473,-0.370,0.550,11.847,0.000,TAKEOFF
1775850563.788,0.039,-1.606,493.430,0.561,-0.213,0.550,11.845,0.000,TAKEOFF
1775850564.114,-0.144,-1.377,494.900,0.599,-0.038,0.550,11.843,0.000,TAKEOFF
1775850564.440,-0.250,-1.106,496.370,0.583,0.140,0.550,11.841,0.000,TAKEOFF
1775850564.770,-0.269,-0.817,497.840,0.516,0.307,0.550,11.839,0.000,TAKEOFF
1775850565.095,-0.199,-0.534,499.310,0.402,0.445,0.550,11.836,0.000,TAKEOFF
1775850565.421,-0.048,-0.281,500.780,0.253,0.544,0.550,11.834,0.000,TAKEOFF
1775850565.749,0.168,-0.082,502.250,0.080,0.595,0.550,11.832,0.000,TAKEOFF
1775850566.075,0.431,0.044,503.720,-0.099,0.592,0.550,11.830,0.000,TAKEOFF
1775850566.400,0.718,0.083,505.190,-0.269,0.536,0.550,11.828,0.000,TAKEOFF
1775850566.729,1.005,0.034,506.660,-0.416,0.433,0.550,11.826,0.000,TAKEOFF
1775850567.055,1.268,-0.099,508.130,-0.525,0.290,0.550,11.824,0.000,TAKEOFF
1775850567.379,1.481,-0.301,509.600,-0.587,0.122,0.550,11.821,0.000,TAKEOFF
1775850567.706,1.625,-0.555,511.070,-0.597,-0.057,0.550,11.819,0.000,TAKEOFF
1775850568.030,1.686,-0.838,512.540,-0.554,-0.231,0.550,11.817,0.000,TAKEOFF
1775850568.354,1.657,-1.128,514.010,-0.461,-0.384,0.550,11.815,0.000,TAKEOFF
1775850568.678,1.543,-1.398,515.480,-0.327,-0.503,0.550,11.813,0.000,TAKEOFF
1775850569.005,1.356,-1.625,516.950,-0.164,-0.577,0.550,11.811,0.000,TAKEOFF
1775850569.333,1.112,-1.788,518.420,0.014,-0.600,0.550,11.808,0.000,TAKEOFF
1775850569.657,0.834,-1.869,519.890,0.191,-0.569,0.550,11.806,0.000,TAKEOFF
1775850569.984,0.544,-1.861,521.360,0.351,-0.487,0.550,11.804,0.000,TAKEOFF
1775850570.310,0.266,-1.766,522.830,0.479,-0.362,0.550,11.802,0.000,TAKEOFF
1775850570.638,0.027,-1.595,524.300,0.564,-0.204,0.550,11.800,0.000,TAKEOFF
1775850570.963,-0.152,-1.363,525.770,0.599,-0.028,0.550,11.798,0.000,TAKEOFF
1775850571.291,-0.253,-1.090,527.240,0.581,0.150,0.550,11.796,0.000,TAKEOFF
1775850571.622,-0.267,-0.801,528.710,0.511,0.315,0.550,11.793,0.000,TAKEOFF
1775850571.945,-0.192,-0.518,530.180,0.395,0.452,0.550,11.791,0.000,TAKEOFF
1775850572.271,-0.038,-0.268,531.650,0.243,0.548,0.550,11.789,0.000,TAKEOFF
1775850572.596,0.182,-0.073,533.120,0.070,0.596,0.550,11.787,0.000,TAKEOFF
1775850572.923,0.447,0.048,534.590,-0.109,0.590,0.550,11.785,0.000,TAKEOFF
1775850573.247,0.734,0.083,536.060,-0.278,0.532,0.550,11.783,0.000,TAKEOFF
1775850573.574,1.021,0.029,537.530,-0.423,0.426,0.550,11.781,0.000,TAKEOFF
1775850573.903,1.281,-0.108,539.000,-0.530,0.282,0.550,11.778,0.000,TAKEOFF
1775850574.227,1.491,-0.314,540.470,-0.589,0.112,0.550,11.776,0.000,TAKEOFF
1775850574.554,1.631,-0.570,541.940,-0.596,-0.067,0.550,11.774,0.000,TAKEOFF
1775850574.878,1.687,-0.855,543.410,-0.550,-0.240,0.550,11.772,0.000,TAKEOFF
1775850575.204,1.653,-1.144,544.880,-0.454,-0.392,0.550,11.770,0.000,TAKEOFF
1775850575.531,1.535,-1.412,546.350,-0.318,-0.509,0.550,11.768,0.000,TAKEOFF
1775850575.857,1.343,-1.636,547.820,-0.154,-0.580,0.550,11.766,0.000,TAKEOFF
1775850576.184,1.097,-1.794,549.290,0.024,-0.600,0.550,11.763,0.000,TAKEOFF
1775850576.510,0.818,-1.871,550.760,0.200,-0.566,0.550,11.761,0.000,TAKEOFF
1775850576.835,0.528,-1.858,552.230,0.359,-0.481,0.550,11.759,0.000,TAKEOFF
1775850577.161,0.252,-1.759,553.700,0.485,-0.354,0.550,11.757,0.000,TAKEOFF
1775850577.490,0.015,-1.583,555.170,0.568,-0.194,0.550,11.755,0.000,TAKEOFF
1775850577.813,-0.160,-1.348,556.640,0.600,-0.018,0.550,11.753,0.000,TAKEOFF
1775850578.139,-0.257,-1.074,558.110,0.578,0.160,0.550,11.751,0.000,TAKEOFF
1775850578.465,-0.265,-0.785,559.580,0.505,0.324,0.550,11.748,0.000,TAKEOFF
1775850578.791,-0.186,-0.503,561.050,0.387,0.459,0.550,11.746,0.000,TAKEOFF
1775850579.118,-0.027,-0.255,562.520,0.234,0.552,0.550,11.744,0.000,TAKEOFF
1775850579.446,0.196,-0.064,563.990,0.060,0.597,0.550,11.742,0.000,TAKEOFF
1775850579.775,0.462,0.052,565.460,-0.119,0.588,0.550,11.740,0.000,TAKEOFF
1775850580.103,0.751,0.082,566.930,-0.287,0.527,0.550,11.738,0.000,TAKEOFF
1775850580.426,1.036,0.023,568.400,-0.430,0.418,0.550,11.736,0.000,TAKEOFF
1775850580.747,1.294,-0.118,569.870,-0.534,0.273,0.550,11.733,0.000,TAKEOFF
1775850581.074,1.501,-0.328,571.340,-0.591,0.102,0.550,11.731,0.000,TAKEOFF
1775850581.401,1.637,-0.586,572.810,-0.595,-0.077,0.550,11.729,0.000,TAKEOFF
1775850581.727,1.687,-0.871,574.280,-0.546,-0.249,0.550,11.727,0.000,TAKEOFF
1775850582.054,1.649,-1.160,575.750,-0.448,-0.399,0.550,11.725,0.000,TAKEOFF
1775850582.382,1.526,-1.426,577.220,-0.310,-0.514,0.550,11.723,0.000,TAKEOFF
1775850582.709,1.331,-1.647,578.690,-0.144,-0.582,0.550,11.721,0.000,TAKEOFF
1775850583.034,1.082,-1.801,580.160,0.035,-0.599,0.550,11.718,0.000,TAKEOFF
1775850583.361,0.801,-1.872,581.630,0.210,-0.562,0.550,11.716,0.000,TAKEOFF
1775850583.689,0.511,-1.855,583.100,0.367,-0.475,0.550,11.714,0.000,TAKEOFF
1775850584.015,0.237,-1.751,584.570,0.491,-0.345,0.550,11.712,0.000,TAKEOFF
1775850584.341,0.004,-1.572,586.040,0.571,-0.185,0.550,11.710,0.000,TAKEOFF
1775850584.668,-0.168,-1.334,587.510,0.600,-0.008,0.550,11.708,0.000,TAKEOFF
1775850584.993,-0.259,-1.058,588.980,0.576,0.170,0.550,11.706,0.000,TAKEOFF
1775850585.321,-0.263,-0.768,590.450,0.500,0.332,0.550,11.703,0.000,TAKEOFF
1775850585.646,-0.179,-0.488,591.920,0.379,0.465,0.550,11.701,0.000,TAKEOFF
1775850585.974,-0.016,-0.243,593.390,0.225,0.556,0.550,11.699,0.000,TAKEOFF
1775850586.300,0.210,-0.055,594.860,0.050,0.598,0.550,11.697,0.000,TAKEOFF
1775850586.626,0.478,0.057,596.330,-0.129,0.586,0.550,11.695,0.000,TAKEOFF
1775850586.952,0.767,0.081,597.800,-0.296,0.522,0.550,11.693,0.000,TAKEOFF
1775850587.278,1.052,0.017,599.270,-0.437,0.411,0.550,11.691,0.000,TAKEOFF
1775850587.606,1.308,-0.128,600.740,-0.539,0.264,0.550,11.688,0.000,TAKEOFF
1775850587.931,1.511,-0.341,602.210,-0.593,0.093,0.550,11.686,0.000,TAKEOFF
1775850588.258,1.642,-0.601,603.680,-0.594,-0.087,0.550,11.684,0.000,TAKEOFF
1775850588.582,1.687,-0.887,605.150,-0.542,-0.258,0.550,11.682,0.000,TAKEOFF
1775850588.907,1.644,-1.175,606.620,-0.441,-0.407,0.550,11.680,0.000,TAKEOFF
1775850589.233,1.517,-1.440,608.090,-0.301,-0.519,0.550,11.678,0.000,TAKEOFF
1775850589.558,1.318,-1.658,609.560,-0.134,-0.585,0.550,11.676,0.000,TAKEOFF
1775850589.880,1.067,-1.807,611.030,0.045,-0.598,0.550,11.673,0.000,TAKEOFF
1775850590.206,0.785,-1.874,612.500,0.219,-0.558,0.550,11.671,0.000,TAKEOFF
1775850590.532,0.495,-1.851,613.970,0.375,-0.469,0.550,11.669,0.000,TAKEOFF
1775850590.858,0.223,-1.743,615.440,0.496,-0.337,0.550,11.667,0.000,TAKEOFF
1775850591.185,-0.008,-1.560,616.910,0.574,-0.175,0.550,11.665,0.000,TAKEOFF
1775850591.512,-0.175,-1.319,618.380,0.600,0.002,0.550,11.663,0.000,TAKEOFF
1775850591.839,-0.262,-1.042,619.850,0.573,0.179,0.550,11.660,0.000,TAKEOFF
1775850592.167,-0.260,-0.752,621.320,0.494,0.341,0.550,11.658,0.000,TAKEOFF
1775850592.493,-0.172,-0.473,622.790,0.371,0.471,0.550,11.656,0.000,TAKEOFF
1775850592.820,-0.005,-0.231,624.260,0.215,0.560,0.550,11.654,0.000,TAKEOFF
1775850593.147,0.224,-0.047,625.730,0.040,0.599,0.550,11.652,0.000,TAKEOFF
1775850593.472,0.494,0.060,627.200,-0.138,0.584,0.550,11.650,0.000,TAKEOFF
1775850593.797,0.783,0.080,628.670,-0.305,0.517,0.550,11.648,0.000,TAKEOFF
1775850594.123,1.067,0.011,630.140,-0.444,0.404,0.550,11.645,0.000,TAKEOFF
1775850594.451,1.321,-0.139,631.610,-0.543,0.254,0.550,11.643,0.000,TAKEOFF
1775850594.777,1.520,-0.354,633.080,-0.594,0.083,0.550,11.641,0.000,TAKEOFF
1775850595.104,1.647,-0.617,634.550,-0.592,-0.097,0.550,11.639,0.000,TAKEOFF
1775850595.431,1.687,-0.904,636.020,-0.537,-0.267,0.550,11.637,0.000,TAKEOFF
1775850595.757,1.639,-1.191,637.490,-0.434,-0.414,0.550,11.635,0.000,TAKEOFF
1775850596.083,1.507,-1.454,638.960,-0.292,-0.524,0.550,11.633,0.000,TAKEOFF
1775850596.406,1.305,-1.668,640.430,-0.124,-0.587,0.550,11.630,0.000,TAKEOFF
1775850596.731,1.052,-1.813,641.900,0.055,-0.598,0.550,11.628,0.000,TAKEOFF
1775850597.057,0.769,-1.875,643.370,0.229,-0.555,0.550,11.626,0.000,TAKEOFF
1775850597.383,0.479,-1.847,644.840,0.382,-0.462,0.550,11.624,0.000,TAKEOFF
1775850597.708,0.209,-1.734,646.310,0.502,-0.329,0.550,11.622,0.000,TAKEOFF
1775850598.032,-0.019,-1.547,647.780,0.577,-0.166,0.550,11.620,0.000,TAKEOFF
1775850598.359,-0.182,-1.304,649.250,0.600,0.012,0.550,11.618,0.000,TAKEOFF
1775850598.686,-0.264,-1.026,650.720,0.569,0.189,0.550,11.615,0.000,TAKEOFF
1775850599.011,-0.258,-0.736,652.190,0.488,0.349,0.550,11.613,0.000,TAKEOFF
1775850599.336,-0.164,-0.459,653.660,0.363,0.477,0.550,11.611,0.000,TAKEOFF
1775850599.664,0.007,-0.219,655.130,0.206,0.564,0.550,11.609,0.000,TAKEOFF
1775850599.991,0.238,-0.039,656.600,0.030,0.599,0.550,11.607,0.000,TAKEOFF
1775850600.318,0.510,0.064,658.070,-0.148,0.581,0.550,11.605,0.000,TAKEOFF
1775850600.646,0.800,0.078,659.540,-0.313,0.512,0.550,11.603,0.000,TAKEOFF
1775850600.970,1.082,0.005,661.010,-0.451,0.396,0.550,11.600,0.000,TAKEOFF
1775850601.296,1.333,-0.149,662.480,-0.548,0.245,0.550,11.598,0.000,TAKEOFF
1775850601.622,1.529,-0.368,663.950,-0.596,0.073,0.550,11.596,0.000,TAKEOFF
1775850601.947,1.651,-0.632,665.420,-0.590,-0.107,0.550,11.594,0.000,TAKEOFF
1775850602.274,1.687,-0.920,666.890,-0.533,-0.276,0.550,11.592,0.000,TAKEOFF
1775850602.601,1.634,-1.207,668.360,-0.427,-0.421,0.550,11.590,0.000,TAKEOFF
1775850602.925,1.498,-1.467,669.830,-0.283,-0.529,0.550,11.588,0.000,TAKEOFF
1775850603.254,1.292,-1.678,671.300,-0.115,-0.589,0.550,11.585,0.000,TAKEOFF
1775850603.580,1.037,-1.819,672.770,0.065,-0.597,0.550,11.583,0.000,TAKEOFF
1775850603.907,0.753,-1.876,674.240,0.238,-0.551,0.550,11.581,0.000,TAKEOFF
1775850604.234,0.464,-1.843,675.710,0.390,-0.456,0.550,11.579,0.000,TAKEOFF
1775850604.562,0.195,-1.726,677.180,0.507,-0.320,0.550,11.577,0.000,TAKEOFF
1775850604.888,-0.030,-1.535,678.650,0.579,-0.156,0.550,11.575,0.000,TAKEOFF
1775850605.214,-0.189,-1.290,680.120,0.600,0.022,0.550,11.573,0.000,TAKEOFF
1775850605.540,-0.266,-1.010,681.590,0.566,0.198,0.550,11.570,0.000,TAKEOFF
1775850605.865,-0.255,-0.720,683.060,0.482,0.357,0.550,11.568,0.000,TAKEOFF
1775850606.191,-0.156,-0.444,684.530,0.355,0.484,0.550,11.566,0.000,TAKEOFF
1775850606.520,0.018,-0.207,686.000,0.196,0.567,0.550,11.564,0.000,TAKEOFF
1775850606.847,0.253,-0.031,687.470,0.020,0.600,0.550,11.562,0.000,TAKEOFF
1775850607.175,0.526,0.067,688.940,-0.158,0.579,0.550,11.560,0.000,TAKEOFF
1775850607.503,0.816,0.076,690.410,-0.322,0.506,0.550,11.558,0.000,TAKEOFF
1775850607.828,1.097,-0.002,691.880,-0.457,0.389,0.550,11.555,0.000,TAKEOFF
1775850608.153,1.346,-0.160,693.350,-0.552,0.236,0.550,11.553,0.000,TAKEOFF
1775850608.477,1.538,-0.382,694.820,-0.597,0.063,0.550,11.551,0.000,TAKEOFF
1775850608.803,1.656,-0.648,696.290,-0.589,-0.117,0.550,11.549,0.000,TAKEOFF
1775850609.127,1.686,-0.936,697.760,-0.528,-0.285,0.550,11.547,0.000,TAKEOFF
1775850609.454,1.628,-1.222,699.230,-0.420,-0.429,0.550,11.545,0.000,TAKEOFF
1775850609.779,1.488,-1.481,700.700,-0.275,-0.534,0.550,11.543,0.000,TAKEOFF
1775850610.105,1.279,-1.688,702.170,-0.105,-0.591,0.550,11.540,0.000,TAKEOFF
1775850610.433,1.021,-1.824,703.640,0.075,-0.595,0.550,11.538,0.000,TAKEOFF
1775850610.760,0.736,-1.876,705.110,0.247,-0.547,0.550,11.536,0.000,TAKEOFF
1775850611.086,0.448,-1.839,706.580,0.398,-0.449,0.550,11.534,0.000,TAKEOFF
1775850611.412,0.181,-1.717,708.050,0.513,-0.312,0.550,11.532,0.000,TAKEOFF
1775850611.739,-0.041,-1.523,709.520,0.582,-0.146,0.550,11.530,0.000,TAKEOFF
1775850612.066,-0.196,-1.275,710.990,0.599,0.032,0.550,11.528,0.000,TAKEOFF
1775850612.393,-0.268,-0.994,712.460,0.563,0.208,0.550,11.525,0.000,TAKEOFF
1775850612.719,-0.251,-0.704,713.930,0.476,0.365,0.550,11.523,0.000,TAKEOFF
1775850613.046,-0.149,-0.429,715.400,0.347,0.489,0.550,11.521,0.000,TAKEOFF
1775850613.373,0.030,-0.195,716.870,0.187,0.570,0.550,11.519,0.000,TAKEOFF
1775850613.700,0.267,-0.023,718.340,0.010,0.600,0.550,11.517,0.000,TAKEOFF
1775850614.021,0.542,0.070,719.810,-0.168,0.576,0.550,11.515,0.000,TAKEOFF
1775850614.347,0.832,0.074,721.280,-0.330,0.501,0.550,11.512,0.000,TAKEOFF
1775850614.673,1.112,-0.009,722.750,-0.464,0.381,0.550,11.510,0.000,TAKEOFF
1775850615.001,1.358,-0.171,724.220,-0.555,0.227,0.550,11.508,0.000,TAKEOFF
1775850615.326,1.547,-0.396,725.690,-0.598,0.052,0.550,11.506,0.000,TAKEOFF
1775850615.656,1.660,-0.664,727.160,-0.587,-0.126,0.550,11.504,0.000,TAKEOFF
1775850615.983,1.685,-0.953,728.630,-0.523,-0.294,0.550,11.502,0.000,TAKEOFF
1775850616.308,1.622,-1.238,730.100,-0.413,-0.436,0.550,11.500,0.000,TAKEOFF
1775850616.633,1.478,-1.494,731.570,-0.266,-0.538,0.550,11.497,0.000,TAKEOFF
1775850616.960,1.266,-1.698,733.040,-0.095,-0.592,0.550,11.495,0.000,TAKEOFF
1775850617.288,1.006,-1.830,734.510,0.085,-0.594,0.550,11.493,0.000,TAKEOFF
1775850617.616,0.720,-1.876,735.980,0.256,-0.542,0.550,11.491,0.000,TAKEOFF
1775850617.943,0.432,-1.834,737.450,0.405,-0.442,0.550,11.489,0.000,TAKEOFF
1775850618.271,0.167,-1.708,738.920,0.518,-0.303,0.550,11.487,0.000,TAKEOFF
1775850618.594,-0.052,-1.510,740.390,0.584,-0.136,0.550,11.485,0.000,TAKEOFF
1775850618.919,-0.202,-1.260,741.860,0.598,0.042,0.550,11.482,0.000,TAKEOFF
1775850619.250,-0.269,-0.978,743.330,0.559,0.217,0.550,11.480,0.000,TAKEOFF
1775850619.578,-0.248,-0.688,744.800,0.470,0.373,0.550,11.478,0.000,TAKEOFF
1775850619.903,-0.140,-0.415,746.270,0.339,0.495,0.550,11.476,0.000,TAKEOFF
1775850620.232,0.042,-0.184,747.740,0.177,0.573,0.550,11.474,0.000,TAKEOFF
1775850620.559,0.282,-0.016,749.210,-0.000,0.600,0.550,11.472,0.000,TAKEOFF
1775850620.884,0.558,0.072,750.680,-0.177,0.573,0.550,11.470,0.000,TAKEOFF
1775850621.212,0.848,0.072,752.150,-0.339,0.495,0.550,11.467,0.000,TAKEOFF
1775850621.537,1.127,-0.016,753.620,-0.470,0.373,0.550,11.465,0.000,TAKEOFF
1775850621.864,1.371,-0.182,755.090,-0.559,0.217,0.550,11.463,0.000,TAKEOFF
1775850622.190,1.555,-0.410,756.560,-0.598,0.042,0.550,11.461,0.000,TAKEOFF
1775850622.516,1.663,-0.680,758.030,-0.584,-0.136,0.550,11.459,0.000,TAKEOFF
1775850622.841,1.684,-0.969,759.500,-0.518,-0.303,0.550,11.457,0.000,TAKEOFF
1775850623.168,1.616,-1.253,760.970,-0.405,-0.442,0.550,11.455,0.000,TAKEOFF
1775850623.490,1.467,-1.507,762.440,-0.256,-0.542,0.550,11.452,0.000,TAKEOFF
1775850623.817,1.252,-1.707,763.910,-0.085,-0.594,0.550,11.450,0.000,TAKEOFF
1775850624.145,0.990,-1.835,765.380,0.095,-0.592,0.550,11.448,0.000,TAKEOFF
1775850624.471,0.704,-1.876,766.850,0.266,-0.538,0.550,11.446,0.000,TAKEOFF
1775850624.798,0.416,-1.829,768.320,0.413,-0.436,0.550,11.444,0.000,TAKEOFF
1775850625.124,0.153,-1.698,769.790,0.523,-0.294,0.550,11.442,0.000,TAKEOFF
1775850625.453,-0.062,-1.497,771.260,0.587,-0.126,0.550,11.440,0.000,TAKEOFF
1775850625.778,-0.208,-1.244,772.730,0.598,0.053,0.550,11.437,0.000,TAKEOFF
1775850626.106,-0.271,-0.961,774.200,0.555,0.227,0.550,11.435,0.000,TAKEOFF
1775850626.433,-0.244,-0.672,775.670,0.464,0.381,0.550,11.433,0.000,TAKEOFF
1775850626.760,-0.132,-0.401,777.140,0.330,0.501,0.550,11.431,0.000,TAKEOFF
1775850627.084,0.054,-0.172,778.610,0.168,0.576,0.550,11.429,0.000,TAKEOFF
1775850627.410,0.296,-0.008,780.080,-0.010,0.600,0.550,11.427,0.000,TAKEOFF
1775850627.736,0.574,0.075,781.550,-0.187,0.570,0.550,11.425,0.000,TAKEOFF
1775850628.065,0.864,0.069,783.020,-0.347,0.489,0.550,11.422,0.000,TAKEOFF
1775850628.393,1.142,-0.023,784.490,-0.476,0.365,0.550,11.420,0.000,TAKEOFF
1775850628.720,1.383,-0.193,785.960,-0.563,0.208,0.550,11.418,0.000,TAKEOFF
1775850629.046,1.564,-0.424,787.430,-0.599,0.032,0.550,11.416,0.000,TAKEOFF
1775850629.373,1.667,-0.696,788.900,-0.582,-0.146,0.550,11.414,0.000,TAKEOFF
1775850629.703,1.683,-0.985,790.370,-0.513,-0.312,0.550,11.412,0.000,TAKEOFF
1775850630.026,1.610,-1.268,791.840,-0.398,-0.449,0.550,11.410,0.000,TAKEOFF
1775850630.352,1.457,-1.520,793.310,-0.247,-0.547,0.550,11.407,0.000,TAKEOFF
1775850630.677,1.239,-1.717,794.780,-0.075,-0.595,0.550,11.405,0.000,TAKEOFF
1775850631.000,0.975,-1.839,796.250,0.105,-0.591,0.550,11.403,0.000,TAKEOFF
1775850631.325,0.687,-1.876,797.720,0.275,-0.534,0.550,11.401,0.000,TAKEOFF
1775850631.649,0.401,-1.824,799.190,0.420,-0.429,0.550,11.399,0.000,TAKEOFF
1775850631.973,0.139,-1.689,800.660,0.528,-0.285,0.550,11.397,0.000,TAKEOFF
1775850632.297,-0.072,-1.484,802.130,0.589,-0.117,0.550,11.395,0.000,TAKEOFF
1775850632.623,-0.214,-1.229,803.600,0.597,0.063,0.550,11.392,0.000,TAKEOFF
1775850632.949,-0.272,-0.945,805.070,0.552,0.236,0.550,11.390,0.000,TAKEOFF
1775850633.272,-0.240,-0.656,806.540,0.457,0.389,0.550,11.388,0.000,TAKEOFF
1775850633.598,-0.123,-0.387,808.010,0.322,0.506,0.550,11.386,0.000,TAKEOFF
1775850633.921,0.066,-0.161,809.480,0.158,0.579,0.550,11.384,0.000,TAKEOFF
1775850634.244,0.311,-0.001,810.950,-0.020,0.600,0.550,11.382,0.000,TAKEOFF
1775850634.568,0.590,0.077,812.420,-0.196,0.567,0.550,11.379,0.000,TAKEOFF
1775850634.895,0.881,0.066,813.890,-0.355,0.484,0.550,11.377,0.000,TAKEOFF
1775850635.221,1.157,-0.031,815.360,-0.482,0.357,0.550,11.375,0.000,TAKEOFF
1775850635.548,1.395,-0.205,816.830,-0.566,0.198,0.550,11.373,0.000,TAKEOFF
1775850635.874,1.572,-0.439,818.300,-0.600,0.022,0.550,11.371,0.000,TAKEOFF
1775850636.200,1.670,-0.712,819.770,-0.579,-0.156,0.550,11.369,0.000,TAKEOFF
1775850636.528,1.681,-1.001,821.240,-0.507,-0.320,0.550,11.367,0.000,TAKEOFF
1775850636.851,1.603,-1.283,822.710,-0.390,-0.456,0.550,11.364,0.000,TAKEOFF
1775850637.180,1.446,-1.532,824.180,-0.238,-0.551,0.550,11.362,0.000,TAKEOFF
1775850637.506,1.225,-1.726,825.650,-0.065,-0.597,0.550,11.360,0.000,TAKEOFF
1775850637.831,0.959,-1.844,827.120,0.115,-0.589,0.550,11.358,0.000,TAKEOFF
1775850638.156,0.671,-1.875,828.590,0.283,-0.529,0.550,11.356,0.000,TAKEOFF
1775850638.487,0.385,-1.818,830.060,0.427,-0.421,0.550,11.354,0.000,TAKEOFF
1775850638.814,0.126,-1.679,831.530,0.533,-0.276,0.550,11.352,0.000,TAKEOFF
1775850639.143,-0.082,-1.471,833.000,0.590,-0.107,0.550,11.349,0.000,TAKEOFF
1775850639.469,-0.219,-1.214,834.470,0.596,0.073,0.550,11.347,0.000,TAKEOFF
1775850639.798,-0.272,-0.929,835.940,0.548,0.245,0.550,11.345,0.000,TAKEOFF
1775850640.126,-0.236,-0.640,837.410,0.451,0.396,0.550,11.343,0.000,TAKEOFF
1775850640.451,-0.115,-0.373,838.880,0.313,0.512,0.550,11.341,0.000,TAKEOFF
1775850640.778,0.079,-0.150,840.350,0.148,0.581,0.550,11.339,0.000,TAKEOFF
1775850641.104,0.326,0.005,841.820,-0.030,0.599,0.550,11.337,0.000,TAKEOFF
1775850641.430,0.607,0.079,843.290,-0.206,0.564,0.550,11.334,0.000,TAKEOFF
1775850641.757,0.897,0.063,844.760,-0.363,0.477,0.550,11.332,0.000,TAKEOFF
1775850642.085,1.171,-0.039,846.230,-0.488,0.349,0.550,11.330,0.000,TAKEOFF
1775850642.412,1.406,-0.216,847.700,-0.569,0.189,0.550,11.328,0.000,TAKEOFF
1775850642.739,1.579,-0.453,849.170,-0.600,0.012,0.550,11.326,0.000,TAKEOFF
1775850643.067,1.673,-0.728,850.640,-0.577,-0.166,0.550,11.324,0.000,TAKEOFF
1775850643.394,1.679,-1.018,852.110,-0.502,-0.329,0.550,11.322,0.000,TAKEOFF
1775850643.722,1.597,-1.298,853.580,-0.382,-0.462,0.550,11.319,0.000,TAKEOFF
1775850644.049,1.435,-1.545,855.050,-0.229,-0.555,0.550,11.317,0.000,TAKEOFF
1775850644.374,1.211,-1.734,856.520,-0.055,-0.598,0.550,11.315,0.000,TAKEOFF
1775850644.701,0.943,-1.848,857.990,0.124,-0.587,0.550,11.313,0.000,TAKEOFF
1775850645.028,0.655,-1.875,859.460,0.292,-0.524,0.550,11.311,0.000,TAKEOFF
1775850645.355,0.370,-1.813,860.930,0.434,-0.414,0.550,11.309,0.000,TAKEOFF
1775850645.684,0.113,-1.669,862.400,0.537,-0.267,0.550,11.307,0.000,TAKEOFF
1775850646.011,-0.092,-1.458,863.870,0.592,-0.097,0.550,11.304,0.000,TAKEOFF
1775850646.339,-0.225,-1.198,865.340,0.594,0.083,0.550,11.302,0.000,TAKEOFF
1775850646.664,-0.272,-0.912,866.810,0.543,0.255,0.550,11.300,0.000,TAKEOFF
1775850646.991,-0.231,-0.624,868.280,0.444,0.404,0.550,11.298,0.000,TAKEOFF
1775850647.318,-0.106,-0.359,869.750,0.305,0.517,0.550,11.296,0.000,TAKEOFF
1775850647.646,0.091,-0.140,871.220,0.138,0.584,0.550,11.294,0.000,TAKEOFF
1775850647.973,0.341,0.012,872.690,-0.040,0.599,0.550,11.292,0.000,TAKEOFF
1775850648.303,0.623,0.080,874.160,-0.215,0.560,0.550,11.289,0.000,TAKEOFF
1775850648.627,0.913,0.060,875.630,-0.371,0.471,0.550,11.287,0.000,TAKEOFF
1775850648.954,1.186,-0.047,877.100,-0.494,0.341,0.550,11.285,0.000,TAKEOFF
1775850649.281,1.418,-0.228,878.570,-0.573,0.179,0.550,11.283,0.000,TAKEOFF
1775850649.608,1.587,-0.468,880.040,-0.600,0.002,0.550,11.281,0.000,TAKEOFF
1775850649.938,1.676,-0.744,881.510,-0.574,-0.175,0.550,11.279,0.000,TAKEOFF
1775850650.262,1.676,-1.034,882.980,-0.496,-0.337,0.550,11.277,0.000,TAKEOFF
1775850650.588,1.589,-1.313,884.450,-0.375,-0.469,0.550,11.274,0.000,TAKEOFF
1775850650.914,1.424,-1.557,885.920,-0.219,-0.558,0.550,11.272,0.000,TAKEOFF
1775850651.241,1.197,-1.743,887.390,-0.045,-0.598,0.550,11.270,0.000,TAKEOFF
1775850651.569,0.927,-1.852,888.860,0.134,-0.585,0.550,11.268,0.000,TAKEOFF
1775850651.897,0.638,-1.873,890.330,0.301,-0.519,0.550,11.266,0.000,TAKEOFF
1775850652.223,0.354,-1.807,891.800,0.441,-0.407,0.550,11.264,0.000,TAKEOFF
1775850652.550,0.100,-1.659,893.270,0.542,-0.258,0.550,11.262,0.000,TAKEOFF
1775850652.878,-0.101,-1.444,894.740,0.594,-0.087,0.550,11.259,0.000,TAKEOFF
1775850653.206,-0.230,-1.183,896.210,0.593,0.093,0.550,11.257,0.000,TAKEOFF
1775850653.530,-0.272,-0.896,897.680,0.539,0.264,0.550,11.255,0.000,TAKEOFF
1775850653.857,-0.226,-0.609,899.150,0.437,0.411,0.550,11.253,0.000,TAKEOFF
1775850654.184,-0.096,-0.345,900.620,0.296,0.522,0.550,11.251,0.000,TAKEOFF
1775850654.510,0.104,-0.129,902.090,0.129,0.586,0.550,11.249,0.000,TAKEOFF
1775850654.837,0.356,0.018,903.560,-0.050,0.598,0.550,11.247,0.000,TAKEOFF
1775850655.164,0.639,0.081,905.030,-0.225,0.556,0.550,11.244,0.000,TAKEOFF
1775850655.490,0.929,0.056,906.500,-0.379,0.465,0.550,11.242,0.000,TAKEOFF
1775850655.819,1.200,-0.055,907.970,-0.500,0.332,0.550,11.240,0.000,TAKEOFF
1775850656.145,1.429,-0.240,909.440,-0.576,0.170,0.550,11.238,0.000,TAKEOFF
1775850656.472,1.594,-0.482,910.910,-0.600,-0.008,0.550,11.236,0.000,TAKEOFF
1775850656.799,1.678,-0.760,912.380,-0.571,-0.185,0.550,11.234,0.000,TAKEOFF
1775850657.127,1.674,-1.050,913.850,-0.491,-0.345,0.550,11.231,0.000,TAKEOFF
1775850657.456,1.582,-1.328,915.320,-0.367,-0.475,0.550,11.229,0.000,TAKEOFF
1775850657.780,1.413,-1.569,916.790,-0.210,-0.562,0.550,11.227,0.000,TAKEOFF
1775850658.110,1.183,-1.751,918.260,-0.034,-0.599,0.550,11.225,0.000,TAKEOFF
1775850658.438,0.912,-1.855,919.730,0.144,-0.582,0.550,11.223,0.000,TAKEOFF
1775850658.764,0.622,-1.872,921.200,0.310,-0.514,0.550,11.221,0.000,TAKEOFF
1775850659.093,0.339,-1.800,922.670,0.448,-0.399,0.550,11.219,0.000,TAKEOFF
1775850659.420,0.087,-1.648,924.140,0.546,-0.249,0.550,11.216,0.000,TAKEOFF
1775850659.747,-0.111,-1.431,925.610,0.595,-0.077,0.550,11.214,0.000,TAKEOFF
1775850660.074,-0.234,-1.167,927.080,0.591,0.103,0.550,11.212,0.000,TAKEOFF
1775850660.404,-0.272,-0.880,928.550,0.534,0.273,0.550,11.210,0.000,TAKEOFF
1775850660.731,-0.221,-0.593,930.020,0.430,0.418,0.550,11.208,0.000,TAKEOFF
1775850661.056,-0.087,-0.331,931.490,0.287,0.527,0.550,11.206,0.000,TAKEOFF
1775850661.383,0.117,-0.119,932.960,0.119,0.588,0.550,11.204,0.000,TAKEOFF
1775850661.707,0.372,0.024,934.430,-0.060,0.597,0.550,11.201,0.000,TAKEOFF
1775850662.033,0.655,0.082,935.900,-0.234,0.552,0.550,11.199,0.000,TAKEOFF
1775850662.360,0.945,0.052,937.370,-0.387,0.459,0.550,11.197,0.000,TAKEOFF
1775850662.690,1.214,-0.064,938.840,-0.505,0.324,0.550,11.195,0.000,TAKEOFF
1775850663.012,1.440,-0.253,940.310,-0.578,0.160,0.550,11.193,0.000,TAKEOFF
1775850663.339,1.601,-0.497,941.780,-0.600,-0.018,0.550,11.191,0.000,TAKEOFF
1775850663.666,1.680,-0.776,943.250,-0.568,-0.194,0.550,11.189,0.000,TAKEOFF
1775850663.994,1.671,-1.066,944.720,-0.485,-0.354,0.550,11.186,0.000,TAKEOFF
1775850664.324,1.575,-1.343,946.190,-0.359,-0.481,0.550,11.184,0.000,TAKEOFF
1775850664.648,1.402,-1.581,947.660,-0.200,-0.566,0.550,11.182,0.000,TAKEOFF
1775850664.975,1.168,-1.759,949.130,-0.024,-0.600,0.550,11.180,0.000,TAKEOFF
1775850665.301,0.896,-1.859,950.600,0.154,-0.580,0.550,11.178,0.000,TAKEOFF
1775850665.627,0.606,-1.870,952.070,0.318,-0.509,0.550,11.176,0.000,TAKEOFF
1775850665.954,0.324,-1.794,953.540,0.454,-0.392,0.550,11.174,0.000,TAKEOFF
1775850666.280,0.074,-1.638,955.010,0.550,-0.240,0.550,11.171,0.000,TAKEOFF
1775850666.606,-0.120,-1.417,956.480,0.596,-0.067,0.550,11.169,0.000,TAKEOFF
1775850666.933,-0.239,-1.151,957.950,0.589,0.112,0.550,11.167,0.000,TAKEOFF
1775850667.259,-0.272,-0.864,959.420,0.530,0.282,0.550,11.165,0.000,TAKEOFF
1775850667.584,-0.216,-0.577,960.890,0.423,0.426,0.550,11.163,0.000,TAKEOFF
1775850667.910,-0.077,-0.318,962.360,0.278,0.532,0.550,11.161,0.000,TAKEOFF
1775850668.238,0.130,-0.109,963.830,0.109,0.590,0.550,11.159,0.000,TAKEOFF
1775850668.565,0.387,0.029,965.300,-0.070,0.596,0.550,11.156,0.000,TAKEOFF
1775850668.892,0.672,0.083,966.770,-0.243,0.548,0.550,11.154,0.000,TAKEOFF
1775850669.219,0.960,0.048,968.240,-0.395,0.452,0.550,11.152,0.000,TAKEOFF
1775850669.544,1.228,-0.073,969.710,-0.511,0.315,0.550,11.150,0.000,TAKEOFF
1775850669.872,1.451,-0.265,971.180,-0.581,0.150,0.550,11.148,0.000,TAKEOFF
1775850670.201,1.608,-0.512,972.650,-0.599,-0.028,0.550,11.146,0.000,TAKEOFF
1775850670.528,1.682,-0.792,974.120,-0.564,-0.204,0.550,11.144,0.000,TAKEOFF
1775850670.853,1.668,-1.082,975.590,-0.479,-0.362,0.550,11.141,0.000,TAKEOFF
1775850671.178,1.567,-1.357,977.060,-0.351,-0.487,0.550,11.139,0.000,TAKEOFF
1775850671.504,1.390,-1.593,978.530,-0.191,-0.569,0.550,11.137,0.000,TAKEOFF
1775850671.833,1.154,-1.767,980.000,-0.014,-0.600,0.550,11.135,0.000,TAKEOFF
1775850672.159,0.880,-1.862,981.470,0.164,-0.577,0.550,11.133,0.000,TAKEOFF
1775850672.484,0.590,-1.868,982.940,0.327,-0.503,0.550,11.131,0.000,TAKEOFF
1775850672.812,0.309,-1.787,984.410,0.461,-0.384,0.550,11.129,0.000,TAKEOFF
1775850673.141,0.062,-1.627,985.880,0.554,-0.231,0.550,11.126,0.000,TAKEOFF
1775850673.468,-0.129,-1.403,987.350,0.597,-0.057,0.550,11.124,0.000,TAKEOFF
1775850673.793,-0.243,-1.136,988.820,0.587,0.122,0.550,11.122,0.000,TAKEOFF
1775850674.119,-0.271,-0.847,990.290,0.525,0.290,0.550,11.120,0.000,TAKEOFF
1775850674.445,-0.210,-0.562,991.760,0.416,0.433,0.550,11.118,0.000,TAKEOFF
1775850674.771,-0.067,-0.305,993.230,0.269,0.536,0.550,11.116,0.000,TAKEOFF
1775850675.101,0.143,-0.099,994.700,0.099,0.592,0.550,11.114,0.000,TAKEOFF
1775850675.430,0.402,0.035,996.170,-0.080,0.595,0.550,11.111,0.000,TAKEOFF
1775850675.760,0.688,0.083,997.640,-0.253,0.544,0.550,11.109,0.000,TAKEOFF
1775850676.084,0.976,0.043,999.110,-0.402,0.445,0.550,11.107,0.000,TAKEOFF
1775850676.411,1.242,-0.082,1000.580,-0.516,0.307,0.550,11.105,0.000,TAKEOFF
1775850676.738,1.462,-0.278,1002.050,-0.583,0.140,0.550,11.103,0.000,TAKEOFF
1775850677.065,1.614,-0.527,1003.520,-0.599,-0.038,0.550,11.101,0.000,TAKEOFF
1775850677.393,1.684,-0.809,1004.990,-0.561,-0.213,0.550,11.099,0.000,TAKEOFF
1775850677.720,1.664,-1.098,1006.460,-0.473,-0.370,0.550,11.096,0.000,TAKEOFF
1775850678.049,1.559,-1.372,1007.930,-0.342,-0.493,0.550,11.094,0.000,TAKEOFF
1775850678.372,1.378,-1.605,1009.400,-0.181,-0.572,0.550,11.092,0.000,TAKEOFF
1775850678.697,1.139,-1.774,1010.870,-0.004,-0.600,0.550,11.090,0.000,TAKEOFF
1775850679.024,0.863,-1.864,1012.340,0.173,-0.574,0.550,11.088,0.000,TAKEOFF
1775850679.352,0.573,-1.866,1013.810,0.335,-0.498,0.550,11.086,0.000,TAKEOFF
1775850679.677,0.294,-1.780,1015.280,0.467,-0.376,0.550,11.083,0.000,TAKEOFF
1775850680.004,0.049,-1.616,1016.750,0.558,-0.221,0.550,11.081,0.000,TAKEOFF
1775850680.330,-0.137,-1.389,1018.220,0.598,-0.047,0.550,11.079,0.000,TAKEOFF
1775850680.657,-0.247,-1.120,1019.690,0.585,0.132,0.550,11.077,0.000,TAKEOFF
1775850680.984,-0.270,-0.831,1021.160,0.520,0.299,0.550,11.075,0.000,TAKEOFF
1775850681.312,-0.204,-0.547,1022.630,0.408,0.440,0.550,11.073,0.000,TAKEOFF
1775850681.638,-0.057,-0.292,1024.100,0.260,0.541,0.550,11.071,0.000,TAKEOFF
1775850681.966,0.157,-0.090,1025.570,0.089,0.593,0.550,11.068,0.000,TAKEOFF
1775850682.293,0.418,0.040,1027.040,-0.090,0.593,0.550,11.066,0.000,TAKEOFF
1775850682.621,0.704,0.083,1028.510,-0.262,0.540,0.550,11.064,0.000,TAKEOFF
1775850682.946,0.992,0.038,1029.980,-0.410,0.438,0.550,11.062,0.000,TAKEOFF
1775850683.274,1.256,-0.091,1031.450,-0.521,0.298,0.550,11.060,0.000,TAKEOFF
1775850683.600,1.473,-0.290,1032.920,-0.586,0.131,0.550,11.058,0.000,TAKEOFF
1775850683.929,1.620,-0.542,1034.390,-0.598,-0.048,0.550,11.056,0.000,TAKEOFF
1775850684.257,1.685,-0.825,1035.860,-0.557,-0.223,0.550,11.053,0.000,TAKEOFF
1775850684.584,1.661,-1.114,1037.330,-0.466,-0.378,0.550,11.051,0.000,TAKEOFF
1775850684.910,1.550,-1.386,1038.800,-0.334,-0.498,0.550,11.049,0.000,TAKEOFF
1775850685.241,1.366,-1.616,1040.270,-0.172,-0.575,0.550,11.047,0.000,TAKEOFF
1775850685.568,1.125,-1.782,1041.740,0.006,-0.600,0.550,11.045,0.000,TAKEOFF
1775850685.896,0.847,-1.867,1043.210,0.183,-0.571,0.550,11.043,0.000,TAKEOFF
1775850686.221,0.557,-1.863,1044.680,0.344,-0.492,0.550,11.041,0.000,TAKEOFF
1775850686.549,0.279,-1.773,1046.150,0.474,-0.368,0.550,11.038,0.000,TAKEOFF
1775850686.878,0.037,-1.604,1047.620,0.561,-0.212,0.550,11.036,0.000,TAKEOFF
1775850687.203,-0.145,-1.375,1049.090,0.599,-0.037,0.550,11.034,0.000,TAKEOFF
1775850687.528,-0.251,-1.104,1050.560,0.583,0.142,0.550,11.032,0.000,TAKEOFF
1775850687.856,-0.268,-0.815,1052.030,0.515,0.308,0.550,11.030,0.000,TAKEOFF
1775850688.182,-0.198,-0.531,1053.500,0.401,0.446,0.550,11.028,0.000,TAKEOFF
1775850688.508,-0.047,-0.279,1054.970,0.251,0.545,0.550,11.026,0.000,TAKEOFF
1775850688.834,0.170,-0.080,1056.440,0.079,0.595,0.550,11.023,0.000,TAKEOFF
1775850689.162,0.434,0.044,1057.910,-0.100,0.592,0.550,11.021,0.000,TAKEOFF
1775850689.491,0.721,0.083,1059.380,-0.271,0.535,0.550,11.019,0.000,TAKEOFF
1775850689.818,1.008,0.033,1060.850,-0.417,0.432,0.550,11.017,0.000,TAKEOFF
1775850690.148,1.270,-0.100,1062.320,-0.526,0.289,0.550,11.015,0.000,TAKEOFF
1775850690.474,1.483,-0.303,1063.790,-0.588,0.121,0.550,11.013,0.000,TAKEOFF
1775850690.803,1.626,-0.557,1065.260,-0.597,-0.058,0.550,11.011,0.000,TAKEOFF
1775850691.131,1.686,-0.841,1066.730,-0.553,-0.232,0.550,11.008,0.000,TAKEOFF
1775850691.455,1.657,-1.130,1068.200,-0.460,-0.385,0.550,11.006,0.000,TAKEOFF
1775850691.784,1.542,-1.401,1069.670,-0.326,-0.504,0.550,11.004,0.000,TAKEOFF
1775850692.111,1.354,-1.627,1071.140,-0.162,-0.578,0.550,11.002,0.000,TAKEOFF
1775850692.437,1.110,-1.789,1072.610,0.016,-0.600,0.550,11.000,0.000,TAKEOFF
1775850692.763,0.831,-1.869,1074.080,0.192,-0.568,0.550,10.998,0.000,TAKEOFF
1775850693.090,0.541,-1.861,1075.550,0.352,-0.486,0.550,10.996,0.000,TAKEOFF
1775850693.421,0.264,-1.765,1077.020,0.480,-0.360,0.550,10.993,0.000,TAKEOFF
1775850693.748,0.025,-1.593,1078.490,0.565,-0.202,0.550,10.991,0.000,TAKEOFF
1775850694.076,-0.153,-1.361,1079.960,0.599,-0.027,0.550,10.989,0.000,TAKEOFF
1775850694.402,-0.254,-1.088,1081.430,0.580,0.152,0.550,10.987,0.000,TAKEOFF
1775850694.729,-0.267,-0.798,1082.900,0.510,0.317,0.550,10.985,0.000,TAKEOFF
1775850695.058,-0.191,-0.516,1084.370,0.393,0.453,0.550,10.983,0.000,TAKEOFF
1775850695.384,-0.036,-0.266,1085.840,0.242,0.549,0.550,10.981,0.000,TAKEOFF
1775850695.713,0.184,-0.071,1087.310,0.069,0.596,0.550,10.978,0.000,TAKEOFF
1775850696.039,0.449,0.049,1088.780,-0.110,0.590,0.550,10.976,0.000,TAKEOFF
1775850696.365,0.737,0.083,1090.250,-0.280,0.531,0.550,10.974,0.000,TAKEOFF
1775850696.692,1.023,0.028,1091.720,-0.424,0.424,0.550,10.972,0.000,TAKEOFF
1775850697.019,1.283,-0.110,1093.190,-0.531,0.280,0.550,10.970,0.000,TAKEOFF
1775850697.347,1.493,-0.316,1094.660,-0.590,0.111,0.550,10.968,0.000,TAKEOFF
1775850697.675,1.632,-0.573,1096.130,-0.596,-0.068,0.550,10.966,0.000,TAKEOFF
1775850698.005,1.687,-0.857,1097.600,-0.549,-0.241,0.550,10.963,0.000,TAKEOFF
1775850698.332,1.652,-1.146,1099.070,-0.453,-0.393,0.550,10.961,0.000,TAKEOFF
1775850698.659,1.533,-1.415,1100.540,-0.317,-0.509,0.550,10.959,0.000,TAKEOFF
1775850698.986,1.341,-1.638,1102.010,-0.152,-0.580,0.550,10.957,0.000,TAKEOFF
1775850699.313,1.095,-1.795,1103.480,0.026,-0.599,0.550,10.955,0.000,TAKEOFF
1775850699.641,0.815,-1.871,1104.950,0.202,-0.565,0.550,10.953,0.000,TAKEOFF
1775850699.968,0.525,-1.857,1106.420,0.360,-0.480,0.550,10.950,0.000,TAKEOFF
1775850700.295,0.250,-1.757,1107.890,0.486,-0.352,0.550,10.948,0.000,TAKEOFF
1775850700.622,0.013,-1.581,1109.360,0.568,-0.193,0.550,10.946,0.000,TAKEOFF
1775850700.950,-0.161,-1.346,1110.830,0.600,-0.016,0.550,10.944,0.000,TAKEOFF
1775850701.278,-0.257,-1.072,1112.300,0.578,0.162,0.550,10.942,0.000,TAKEOFF
1775850701.605,-0.265,-0.782,1113.770,0.504,0.325,0.550,10.940,0.000,TAKEOFF
1775850701.933,-0.185,-0.501,1115.240,0.386,0.460,0.550,10.938,0.000,TAKEOFF
1775850702.261,-0.025,-0.253,1116.710,0.233,0.553,0.550,10.935,0.000,TAKEOFF
1775850702.587,0.198,-0.062,1118.180,0.059,0.597,0.550,10.933,0.000,TAKEOFF
1775850702.916,0.465,0.053,1119.650,-0.120,0.588,0.550,10.931,0.000,TAKEOFF
1775850703.242,0.753,0.082,1121.120,-0.289,0.526,0.550,10.929,0.000,TAKEOFF
1775850703.568,1.039,0.022,1122.590,-0.431,0.417,0.550,10.927,0.000,TAKEOFF
1775850703.896,1.296,-0.120,1124.060,-0.535,0.271,0.550,10.925,0.000,TAKEOFF
1775850704.224,1.503,-0.330,1125.530,-0.591,0.101,0.550,10.923,0.000,TAKEOFF
1775850704.550,1.637,-0.588,1127.000,-0.595,-0.078,0.550,10.920,0.000,TAKEOFF
1775850704.876,1.687,-0.874,1128.470,-0.545,-0.251,0.550,10.918,0.000,TAKEOFF
1775850705.203,1.648,-1.162,1129.940,-0.447,-0.401,0.550,10.916,0.000,TAKEOFF
1775850705.530,1.524,-1.429,1131.410,-0.308,-0.515,0.550,10.914,0.000,TAKEOFF
1775850705.857,1.329,-1.649,1132.880,-0.143,-0.583,0.550,10.912,0.000,TAKEOFF
1775850706.183,1.080,-1.802,1134.350,0.036,-0.599,0.550,10.910,0.000,TAKEOFF
1775850706.510,0.799,-1.873,1135.820,0.211,-0.561,0.550,10.908,0.000,TAKEOFF
1775850706.836,0.509,-1.854,1137.290,0.368,-0.474,0.550,10.905,0.000,TAKEOFF
1775850707.162,0.235,-1.750,1138.760,0.492,-0.344,0.550,10.903,0.000,TAKEOFF
1775850707.489,0.002,-1.570,1140.230,0.571,-0.183,0.550,10.901,0.000,TAKEOFF
1775850707.815,-0.169,-1.332,1141.700,0.600,-0.006,0.550,10.899,0.000,TAKEOFF
1775850708.141,-0.260,-1.056,1143.170,0.575,0.171,0.550,10.897,0.000,TAKEOFF
1775850708.468,-0.263,-0.766,1144.640,0.499,0.334,0.550,10.895,0.000,TAKEOFF
1775850708.796,-0.178,-0.486,1146.110,0.378,0.466,0.550,10.893,0.000,TAKEOFF
1775850709.123,-0.014,-0.241,1147.580,0.223,0.557,0.550,10.890,0.000,TAKEOFF
1775850709.445,0.212,-0.054,1149.050,0.049,0.598,0.550,10.888,0.000,TAKEOFF
1775850709.774,0.481,0.057,1150.520,-0.130,0.586,0.550,10.886,0.000,TAKEOFF
1775850710.103,0.770,0.081,1151.990,-0.297,0.521,0.550,10.884,0.000,TAKEOFF
1775850710.433,1.054,0.016,1153.460,-0.438,0.410,0.550,10.882,0.000,TAKEOFF
1775850710.763,1.310,-0.130,1154.930,-0.540,0.262,0.550,10.880,0.000,TAKEOFF
1775850711.092,1.512,-0.343,1156.400,-0.593,0.091,0.550,10.878,0.000,TAKEOFF
1775850711.419,1.642,-0.604,1157.870,-0.593,-0.088,0.550,10.875,0.000,TAKEOFF
1775850711.745,1.687,-0.890,1159.340,-0.541,-0.260,0.550,10.873,0.000,TAKEOFF
1775850712.072,1.643,-1.178,1160.810,-0.440,-0.408,0.550,10.871,0.000,TAKEOFF
1775850712.400,1.515,-1.442,1162.280,-0.300,-0.520,0.550,10.869,0.000,TAKEOFF
1775850712.727,1.316,-1.659,1163.750,-0.133,-0.585,0.550,10.867,0.000,TAKEOFF
1775850713.053,1.065,-1.808,1165.220,0.046,-0.598,0.550,10.865,0.000,TAKEOFF
1775850713.381,0.783,-1.874,1166.690,0.221,-0.558,0.550,10.863,0.000,TAKEOFF
1775850713.707,0.493,-1.850,1168.160,0.376,-0.468,0.550,10.860,0.000,TAKEOFF
1775850714.036,0.221,-1.741,1169.630,0.497,-0.336,0.550,10.858,0.000,TAKEOFF
1775850714.362,-0.010,-1.558,1171.100,0.574,-0.174,0.550,10.856,0.000,TAKEOFF
1775850714.690,-0.176,-1.317,1172.570,0.600,0.004,0.550,10.854,0.000,TAKEOFF
1775850715.017,-0.262,-1.040,1174.040,0.572,0.181,0.550,10.852,0.000,TAKEOFF
1775850715.345,-0.260,-0.750,1175.510,0.493,0.342,0.550,10.850,0.000,TAKEOFF
1775850715.672,-0.170,-0.471,1176.980,0.370,0.472,0.550,10.848,0.000,TAKEOFF
1775850715.998,-0.003,-0.229,1178.450,0.214,0.561,0.550,10.845,0.000,TAKEOFF
1775850716.324,0.226,-0.045,1179.920,0.039,0.599,0.550,10.843,0.000,TAKEOFF
1775850716.648,0.497,0.061,1181.390,-0.140,0.583,0.550,10.841,0.000,TAKEOFF
1775850716.978,0.786,0.080,1182.860,-0.306,0.516,0.550,10.839,0.000,TAKEOFF
1775850717.303,1.069,0.010,1184.330,-0.445,0.403,0.550,10.837,0.000,TAKEOFF
1775850717.629,1.323,-0.140,1185.800,-0.544,0.253,0.550,10.835,0.000,TAKEOFF
1775850717.953,1.522,-0.357,1187.270,-0.595,0.081,0.550,10.833,0.000,TAKEOFF
1775850718.283,1.647,-0.619,1188.740,-0.592,-0.098,0.550,10.830,0.000,TAKEOFF
1775850718.610,1.687,-0.906,1190.210,-0.536,-0.269,0.550,10.828,0.000,TAKEOFF
1775850718.935,1.638,-1.193,1191.680,-0.433,-0.415,0.550,10.826,0.000,TAKEOFF
1775850719.264,1.506,-1.456,1193.150,-0.291,-0.525,0.550,10.824,0.000,TAKEOFF
1775850719.591,1.303,-1.670,1194.620,-0.123,-0.587,0.550,10.822,0.000,TAKEOFF
